city,region,latitude,longitude
Tunis,Tunis,36.8065,10.1815
Sfax,Sfax,34.7406,10.7603
Sousse,Sousse,35.8256,10.6411
Kairouan,Kairouan,35.6781,10.0963
Gabes,Gabes,33.8815,10.0982
Bizerte,Bizerte,37.2744,9.8739
Tozeur,Tozeur,33.9197,8.1335
